City_ID,City,Country,Lat,Lng,Max Temp,Humidity,Cloudiness,Wind Speed,Current Weather
0,Limulunga,ZM,-15.0969,23.1376,66.22,92,65,5.03,light rain
1,Tres Arroyos,AR,-38.3739,-60.2798,73.6,22,0,8.46,clear sky
2,Tikrit,IQ,34.6071,43.6782,55.92,56,5,6.78,clear sky
3,San Buenaventura,MX,27.0833,-101.5333,71.47,68,0,5.5,clear sky
4,Aykhal,RU,66.0,111.5,-16.64,92,100,4.0,overcast clouds
5,Veraval,IN,20.9,70.3667,68.63,38,64,11.81,broken clouds
6,Kapaa,US,22.0752,-159.319,82.38,74,100,7.0,overcast clouds
7,Norman Wells,CA,65.282,-126.8329,-21.96,76,75,0.0,broken clouds
8,Hobart,AU,-42.8794,147.3294,60.26,73,75,17.27,broken clouds
9,Albany,US,42.6001,-73.9662,37.67,77,35,1.01,scattered clouds
10,Havoysund,NO,70.9963,24.6622,32.23,70,100,23.96,light snow
11,Hermanus,ZA,-34.4187,19.2345,70.81,89,52,8.84,broken clouds
12,Port Elizabeth,ZA,-33.918,25.5701,73.09,99,98,1.01,overcast clouds
13,Atuona,PF,-9.8,-139.0333,78.04,69,34,13.02,scattered clouds
14,Grafton,US,42.207,-71.6856,39.92,71,6,1.01,clear sky
15,Djambala,CG,-2.5447,14.7533,67.1,94,100,2.71,overcast clouds
16,Pandan Niog,PH,6.2282,120.5631,81.5,76,100,6.67,overcast clouds
17,Ushuaia,AR,-54.8,-68.3,42.46,87,100,5.75,light rain
18,Puerto Narino,CO,-3.7703,-70.3831,73.33,98,100,1.66,moderate rain
19,Narsaq,GL,60.9167,-46.05,19.47,76,82,7.61,broken clouds
20,Tasiilaq,GL,65.6145,-37.6368,10.38,57,3,5.17,clear sky
21,Dikson,RU,73.5069,80.5464,-0.62,95,100,15.73,overcast clouds
22,Butaritari,KI,3.0707,172.7902,81.75,77,100,16.55,overcast clouds
23,Cidreira,BR,-30.1811,-50.2056,71.4,88,0,9.57,clear sky
24,Kuybysheve,UA,47.358,36.6491,37.18,86,99,11.9,overcast clouds
25,Raga,SS,8.4596,25.678,71.28,29,60,6.31,broken clouds
26,Ghanzi,BW,-21.5667,21.7833,74.19,55,0,12.1,clear sky
27,Touros,BR,-5.1989,-35.4608,78.55,81,95,11.86,overcast clouds
28,Rikitea,PF,-23.1203,-134.9692,75.27,79,15,12.86,few clouds
29,Port Blair,IN,11.6667,92.75,77.04,94,75,2.3,broken clouds
30,Hilo,US,19.7297,-155.09,78.53,77,75,10.36,light rain
31,Kodiak,US,57.79,-152.4072,28.4,58,91,19.62,overcast clouds
32,Aklavik,CA,68.2191,-135.0107,-25.6,75,40,4.61,scattered clouds
33,Nuuk,GL,64.1835,-51.7216,35.73,62,100,33.62,overcast clouds
34,Punta Arenas,CL,-53.15,-70.9167,50.11,66,0,12.66,clear sky
35,Atasu,KZ,48.6814,71.6433,-3.35,99,100,3.78,overcast clouds
36,Laredo,US,27.5064,-99.5075,75.49,69,0,3.44,clear sky
37,Along,IN,28.1667,94.7667,52.32,70,0,1.7,clear sky
38,Jumla,NP,29.2747,82.1838,40.01,25,0,5.03,clear sky
39,Puerto Ayora,EC,-0.7393,-90.3518,69.55,91,2,9.22,clear sky
40,Qaanaaq,GL,77.484,-69.3632,22.96,80,100,17.18,overcast clouds
41,Lavrentiya,RU,65.5833,-171.0,7.97,84,17,6.93,few clouds
42,Pisco,PE,-13.7,-76.2167,69.03,83,20,3.44,few clouds
43,Salekhard,RU,66.53,66.6019,-17.18,88,76,6.33,broken clouds
44,Krasnoselkup,RU,65.7,82.4667,6.94,95,100,11.25,light snow
45,Laguna,US,38.421,-121.4238,53.91,75,75,6.91,broken clouds
46,Barrow,US,71.2906,-156.7887,7.88,94,100,2.42,overcast clouds
47,Bluff,NZ,-46.6,168.3333,63.81,84,100,9.73,moderate rain
48,Tabuk,PH,17.4189,121.4443,76.8,84,100,1.41,overcast clouds
49,Cape Town,ZA,-33.9258,18.4232,75.38,70,0,7.0,clear sky
50,Castro,BR,-24.7911,-50.0119,67.39,84,76,4.43,broken clouds
51,Mataura,NZ,-46.1927,168.8643,63.48,48,100,0.31,overcast clouds
52,Busselton,AU,-33.65,115.3333,64.63,55,44,5.03,scattered clouds
53,Umba,RU,66.6871,34.3429,24.01,92,100,16.44,light snow
54,Souillac,MU,-20.5167,57.5167,77.38,83,75,11.5,broken clouds
55,Viedma,AR,-40.8135,-62.9967,79.29,19,99,9.82,overcast clouds
56,Bambous Virieux,MU,-20.3428,57.7575,77.25,83,75,11.5,broken clouds
57,San Quintin,MX,30.4833,-115.95,57.6,64,100,13.49,overcast clouds
58,Kavieng,PG,-2.5744,150.7967,83.32,74,89,5.64,light rain
59,Paamiut,GL,61.994,-49.6678,27.77,76,100,14.32,overcast clouds
60,Jamestown,US,42.097,-79.2353,38.01,66,100,5.75,overcast clouds
61,New Norfolk,AU,-42.7826,147.0587,59.92,55,99,3.0,light rain
62,Saint George,US,37.1041,-113.5841,46.26,70,1,1.99,clear sky
63,Ranong,TH,9.9658,98.6348,75.13,87,100,2.62,heavy intensity rain
64,Sao Borja,BR,-28.6606,-56.0044,79.95,30,0,7.34,clear sky
65,Samana,DO,19.2056,-69.3369,72.09,84,42,8.99,scattered clouds
66,Hithadhoo,MV,-0.6,73.0833,82.15,76,100,18.59,overcast clouds
67,Sisimiut,GL,66.9395,-53.6735,31.32,67,100,14.79,overcast clouds
68,Tarko-Sale,RU,64.9225,77.785,-0.09,98,100,23.02,light snow
69,Yar-Sale,RU,66.8333,70.8333,-20.61,95,84,13.2,broken clouds
70,Namatanai,PG,-3.6667,152.4333,83.64,70,100,4.0,overcast clouds
71,Bethel,US,41.3712,-73.414,44.94,72,99,1.01,overcast clouds
72,Cabo San Lucas,MX,22.8909,-109.9124,81.05,72,100,2.37,overcast clouds
73,Yellowknife,CA,62.456,-114.3525,-7.08,84,100,12.66,light snow
74,Fortuna,US,40.5982,-124.1573,43.36,94,100,8.05,overcast clouds
75,Nyurba,RU,63.2842,118.3319,-22.81,97,100,4.65,overcast clouds
76,Antalaha,MG,-14.9003,50.2788,71.67,87,0,5.91,clear sky
77,Jaroslaw,PL,50.0162,22.6778,37.8,75,92,3.69,light rain
78,Vaini,TO,-21.2,-175.2,84.36,79,40,13.8,scattered clouds
79,Lasa,IT,46.6166,10.7002,32.02,87,100,2.89,overcast clouds
80,Seymchan,RU,62.8833,152.4333,-44.21,99,95,1.01,overcast clouds
81,Hay River,CA,60.8156,-115.7999,-0.42,71,100,6.91,overcast clouds
82,Samarai,PG,-10.6167,150.6667,83.79,75,100,4.65,overcast clouds
83,Klaksvik,FO,62.2266,-6.589,38.32,86,100,30.67,light rain
84,Goderich,CA,43.7501,-81.7165,33.91,80,8,6.91,clear sky
85,Provideniya,RU,64.3833,-173.3,14.36,67,0,2.24,clear sky
86,Gibara,CU,21.1097,-76.1317,76.44,60,67,10.16,broken clouds
87,Lagoa,PT,39.05,-27.9833,59.29,68,100,14.92,overcast clouds
88,Pevek,RU,69.7008,170.3133,-17.27,94,59,3.18,broken clouds
89,Ixtapa,MX,20.7,-105.2,71.71,94,63,1.59,broken clouds
90,Finschhafen,PG,-6.6024,147.8681,84.34,71,100,1.14,overcast clouds
91,Bubaque,GW,11.2833,-15.8333,80.82,71,0,9.46,clear sky
92,Nishihara,JP,26.1842,127.7558,67.28,97,100,21.85,overcast clouds
93,Kalmunai,LK,7.4167,81.8167,72.84,67,100,7.05,overcast clouds
94,Olafsvik,IS,64.8945,-23.7142,32.77,66,74,29.24,broken clouds
95,Port Augusta,AU,-32.5,137.7667,77.67,22,41,7.85,scattered clouds
96,Avarua,CK,-21.2078,-159.775,84.25,79,40,6.91,moderate rain
97,Sao Filipe,CV,14.8961,-24.4956,75.61,75,0,8.01,clear sky
98,Hervey Bay,AU,-25.2986,152.8535,78.03,69,4,14.61,clear sky
99,Ribeira Grande,PT,38.5167,-28.7,58.77,83,100,13.0,overcast clouds
100,Ferme-Neuve,CA,46.7001,-75.4493,23.94,72,6,4.43,clear sky
101,Upernavik,GL,72.7868,-56.1549,31.53,75,100,16.91,overcast clouds
102,Tuktoyaktuk,CA,69.4541,-133.0374,-25.6,68,0,9.22,clear sky
103,Port Hedland,AU,-20.3167,118.5667,93.25,40,0,10.36,clear sky
104,Bengkulu,ID,-3.8004,102.2655,76.21,86,100,2.44,overcast clouds
105,Mitsamiouli,KM,-11.3847,43.2844,79.41,79,4,5.48,clear sky
106,Lielvarde,LV,56.7207,24.8074,29.41,98,100,4.52,snow
107,Lompoc,US,34.6391,-120.4579,55.02,82,0,8.05,clear sky
108,Sao Joao Da Barra,BR,-21.6403,-41.0511,75.29,87,59,2.44,broken clouds
109,Namibe,AO,-15.1961,12.1522,69.28,73,78,4.63,broken clouds
110,Mar Del Plata,AR,-38.0023,-57.5575,69.94,62,0,7.0,clear sky
111,Tiksi,RU,71.6872,128.8694,-14.46,100,100,5.5,overcast clouds
112,Pacific Grove,US,36.6177,-121.9166,54.66,80,100,13.0,overcast clouds
113,Shar,KZ,49.5886,81.0453,8.31,85,100,11.01,overcast clouds
114,Jhajjar,IN,28.6063,76.6565,53.71,35,0,2.68,clear sky
115,Cabedelo,BR,-6.9811,-34.8339,79.47,81,15,10.33,few clouds
116,Isangel,VU,-19.55,169.2667,87.91,70,75,4.61,broken clouds
117,Mehamn,NO,71.0357,27.8492,31.91,80,100,26.46,light snow
118,Merauke,ID,-8.4667,140.3333,84.22,72,100,2.98,overcast clouds
119,Bosconia,CO,9.9689,-73.8836,73.76,80,12,3.65,few clouds
120,Fairbanks,US,64.8378,-147.7164,17.56,88,100,6.91,light snow
121,Nadapuram,IN,11.7,75.6667,74.12,53,100,3.71,overcast clouds
122,North Bend,US,43.4065,-124.2243,42.08,99,100,7.78,overcast clouds
123,Coquimbo,CL,-29.9533,-71.3436,62.33,94,75,8.05,broken clouds
124,Airai,TL,-8.9266,125.4092,73.81,49,100,2.55,overcast clouds
125,Havelock,US,34.8791,-76.9013,57.15,82,100,3.0,overcast clouds
126,Ojinaga,MX,29.5667,-104.4167,73.58,56,0,3.44,clear sky
127,Peruibe,BR,-24.32,-46.9983,69.8,86,4,5.01,clear sky
128,Banda Aceh,ID,5.5577,95.3222,75.81,88,100,11.59,overcast clouds
129,Salacgriva,LV,57.7536,24.3581,30.36,96,100,10.71,snow
130,Itarema,BR,-2.9248,-39.9167,79.2,78,100,14.9,overcast clouds
131,Bredasdorp,ZA,-34.5322,20.0403,66.2,95,99,3.4,overcast clouds
132,Dongkan,CN,33.9997,119.8308,46.67,95,100,6.49,overcast clouds
133,Torbay,CA,47.6666,-52.7314,39.76,97,100,11.5,light intensity drizzle
134,Margate,GB,51.3813,1.3862,34.7,86,7,3.0,clear sky
135,Khatanga,RU,71.9667,102.5,-10.98,98,100,2.95,overcast clouds
136,Ancud,CL,-41.8697,-73.8203,56.12,93,93,11.21,light rain
137,Yendi,GH,9.4427,-0.0099,77.99,27,0,3.69,clear sky
138,Baragua,CU,21.6967,-78.6328,69.66,79,1,8.5,clear sky
139,Pouebo,NC,-20.4,164.5667,83.52,68,52,3.53,broken clouds
140,Trelew,AR,-43.249,-65.3051,76.1,24,33,21.83,scattered clouds
141,Adrar,MR,20.5022,-10.0711,74.98,18,9,8.21,clear sky
142,George Town,MY,5.4112,100.3354,78.73,93,40,8.05,moderate rain
143,Divnomorskoye,RU,44.5011,38.1353,48.7,78,82,6.67,broken clouds
144,Lata,PT,40.1629,-8.3327,54.07,97,100,5.03,light rain
145,Los Llanos De Aridane,ES,28.6585,-17.9182,64.15,91,0,3.44,clear sky
146,Barao De Melgaco,BR,-16.1944,-55.9675,81.55,55,100,5.53,overcast clouds
147,Embu,BR,-23.6489,-46.8522,75.24,65,7,1.36,clear sky
148,Shiraz,IR,29.6036,52.5388,42.24,93,75,0.0,mist
149,Mount Gambier,AU,-37.8333,140.7667,60.53,46,100,6.51,overcast clouds
150,Sibolga,ID,1.7427,98.7792,76.1,89,100,3.85,overcast clouds
151,China,MX,25.7,-99.2333,77.09,57,0,16.33,clear sky
152,Boguchany,RU,58.3814,97.4531,7.45,86,100,12.28,overcast clouds
153,Asyut,EG,27.181,31.1837,57.38,47,0,3.2,clear sky
154,Luderitz,NA,-26.6481,15.1594,60.71,90,0,8.46,clear sky
155,Meulaboh,ID,4.1363,96.1285,75.9,85,100,6.55,overcast clouds
156,Mattru,SL,7.6244,-11.8332,74.89,93,11,1.25,few clouds
157,Kruisfontein,ZA,-34.0033,24.7314,70.88,95,32,6.49,scattered clouds
158,Shenjiamen,CN,29.9576,122.298,59.27,83,100,2.24,overcast clouds
159,Chuy,UY,-33.6971,-53.4616,71.2,75,0,5.59,clear sky
160,Chokurdakh,RU,70.6333,147.9167,-30.14,100,86,3.29,overcast clouds
161,Mahebourg,MU,-20.4081,57.7,77.29,83,75,11.5,broken clouds
162,Lagos,NG,6.5833,3.75,79.12,88,0,1.52,clear sky
163,Nabire,ID,-3.3667,135.4833,86.45,62,86,3.29,overcast clouds
164,Bulgan,MN,48.8125,103.5347,-7.28,88,21,4.18,few clouds
165,Suntar,RU,62.1444,117.6319,-23.85,97,100,2.1,overcast clouds
166,Fort Nelson,CA,58.8053,-122.7002,-6.21,77,75,3.44,broken clouds
167,Bhawanigarh,IN,30.2667,76.035,55.99,33,0,5.73,clear sky
168,Norden,DE,53.6,7.2,30.94,82,8,8.1,clear sky
169,Benghazi,LY,32.1167,20.0667,66.2,72,1,9.98,clear sky
170,Naze,JP,28.3667,129.4833,67.12,75,100,15.5,light rain
171,Carnarvon,AU,-24.8667,113.6333,69.85,66,99,15.59,overcast clouds
172,Kasongo-Lunda,CD,-6.4667,16.8167,69.03,97,100,0.78,overcast clouds
173,Sorland,NO,67.667,12.6934,35.46,60,100,22.64,overcast clouds
174,Mareeba,AU,-17.0,145.4333,83.12,29,7,4.0,clear sky
175,Kochubey,RU,44.3861,46.5825,40.14,69,92,19.33,overcast clouds
176,Palauig,PH,15.435,119.9045,82.69,69,99,1.7,overcast clouds
177,Kidal,ML,18.4411,1.4078,70.36,15,0,9.71,clear sky
178,Pokhara,NP,28.2333,83.9833,55.63,44,0,5.37,clear sky
179,Watsa,CD,3.0372,29.5355,61.75,98,34,1.14,scattered clouds
180,Ostrovnoy,RU,68.0531,39.5131,24.08,90,100,28.92,light snow
181,Miguel Hidalgo,MX,19.4225,-99.2028,65.59,37,0,1.99,clear sky
182,Sioux Lookout,CA,50.1001,-91.917,8.67,85,75,3.44,broken clouds
183,Krk,HR,45.0258,14.5731,50.99,97,100,10.56,overcast clouds
184,Dolores,AR,-36.3132,-57.6792,64.8,59,0,9.64,clear sky
185,Port Alfred,ZA,-33.5906,26.891,74.17,93,90,3.0,overcast clouds
186,Esperance,AU,-33.8667,121.9,67.95,74,0,11.45,clear sky
187,Tabou,CI,4.423,-7.3528,78.33,83,5,6.55,clear sky
188,Cherskiy,RU,68.75,161.3,-20.52,89,74,0.96,broken clouds
189,Kodinsk,RU,58.6881,99.1844,7.21,93,100,11.01,light snow
190,Itaqui,BR,-29.1253,-56.5531,87.08,27,0,9.15,clear sky
191,Saint-Francois,FR,46.4154,3.9054,31.44,93,100,4.61,overcast clouds
192,Ust-Uda,RU,54.1742,103.0304,8.08,94,97,4.21,overcast clouds
193,Severo-Kurilsk,RU,50.6789,156.125,25.81,57,80,14.16,broken clouds
194,Mackay,AU,-21.15,149.2,90.68,67,3,13.89,clear sky
195,Tuatapere,NZ,-46.1333,167.6833,60.67,81,100,0.54,light rain
196,Hami,CN,42.8,93.45,21.25,56,0,9.22,clear sky
197,Faanui,PF,-16.4833,-151.75,80.94,73,92,11.86,overcast clouds
198,Araceli,PH,10.5529,119.9913,80.62,76,100,5.88,light rain
199,Pokaran,IN,26.9167,71.9167,61.57,28,0,3.56,clear sky
200,Murmashi,RU,68.8154,32.8115,25.21,92,75,8.99,broken clouds
201,Kaohsiung,TW,22.6163,120.3133,69.89,73,20,9.22,few clouds
202,Comodoro Rivadavia,AR,-45.8667,-67.5,63.12,40,0,33.24,clear sky
203,Buraydah,SA,26.326,43.975,60.82,73,69,10.45,broken clouds
204,Henties Bay,NA,-22.116,14.2845,57.96,91,0,3.71,clear sky
205,Saint-Pierre,RE,-21.3393,55.4781,75.9,78,12,8.05,few clouds
206,Hanna,CA,51.6334,-111.9018,18.55,80,85,8.99,overcast clouds
207,Pishin,PK,30.5803,66.9961,46.17,53,61,2.01,broken clouds
208,Coihaique,CL,-45.5752,-72.0662,48.81,96,98,5.39,light rain
209,Nizwa,OM,22.9333,57.5333,65.71,52,0,4.14,clear sky
210,Bathsheba,BB,13.2167,-59.5167,77.05,81,96,9.8,overcast clouds
211,Brae,GB,60.3964,-1.353,41.29,58,85,18.81,overcast clouds
212,Elk City,US,35.412,-99.4043,53.82,100,0,3.44,clear sky
213,Victoria,HK,22.2855,114.1577,69.24,78,0,1.01,clear sky
214,Haldibari,IN,26.3333,88.7667,61.09,68,11,2.57,few clouds
215,Rabo De Peixe,PT,37.8,-25.5833,58.28,100,40,4.61,scattered clouds
216,Vestmannaeyjar,IS,63.4427,-20.2734,30.4,58,11,16.96,few clouds
217,San Patricio,US,28.017,-97.5169,73.83,85,0,9.26,clear sky
218,Balakhninskiy,RU,58.0106,114.2769,7.27,93,100,13.44,light snow
219,Tutoia,BR,-2.7619,-42.2744,80.2,81,100,12.68,overcast clouds
220,Kangaatsiaq,GL,68.3065,-53.4641,30.88,89,100,10.42,overcast clouds
221,Lebu,CL,-37.6167,-73.65,61.45,94,100,7.38,overcast clouds
222,Kenai,US,60.5544,-151.2583,15.15,93,46,1.01,scattered clouds
223,Doha,QA,25.2867,51.5333,73.38,64,0,5.75,clear sky
224,Coahuayana,MX,18.7333,-103.6833,75.58,89,71,2.06,broken clouds
225,Muli,MV,2.9167,73.5667,81.07,79,100,17.13,overcast clouds
226,Northam,GB,51.0333,-4.2167,32.25,83,15,5.19,few clouds
227,Ilulissat,GL,69.2167,-51.1,44.62,39,75,14.97,broken clouds
228,Tessalit,ML,20.1986,1.0114,71.78,17,0,11.1,clear sky
229,Salinas,US,36.6777,-121.6555,55.08,70,100,0.47,overcast clouds
230,North Platte,US,41.1239,-100.7654,31.89,93,100,16.11,mist
231,Ust-Ishim,RU,57.6935,71.1665,7.5,96,100,6.04,overcast clouds
232,Vao,NC,-22.6667,167.4833,78.24,80,0,7.72,clear sky
233,Vanavara,RU,60.34,102.2797,5.99,93,100,12.28,light snow
234,Omboue,GA,-1.5746,9.2618,75.76,86,74,4.81,broken clouds
235,Bandarbeyla,SO,9.4942,50.8122,76.06,76,100,17.65,overcast clouds
236,Arcachon,FR,44.5875,-1.0519,44.65,100,100,6.91,light intensity drizzle
237,Solnechnyy,RU,50.7214,136.6319,6.42,75,17,2.98,few clouds
238,La Trinitaria,MX,16.1167,-92.05,57.69,76,3,9.46,clear sky
239,Caconda,AO,-13.7333,15.0667,60.35,92,100,3.71,light rain
240,Alofi,NU,-19.0595,-169.9187,77.76,84,100,15.82,light rain
241,East London,ZA,-33.0153,27.9116,73.87,93,100,20.4,overcast clouds
242,Puerto Colombia,CO,10.9878,-74.9547,79.32,79,6,21.54,clear sky
243,Tual,ID,-5.6667,132.75,82.81,75,95,8.93,overcast clouds
244,Kaitangata,NZ,-46.2817,169.8464,62.28,69,100,5.35,overcast clouds
245,Kaabong,UG,3.4836,34.1492,65.39,71,30,10.29,scattered clouds
246,Lima,PE,-12.0432,-77.0282,67.39,76,100,7.43,overcast clouds
247,Palmer,US,42.1584,-72.3287,40.96,68,4,1.99,clear sky
248,Leningradskiy,RU,69.3833,178.4167,-18.33,90,21,3.78,few clouds
249,Mwense,ZM,-10.3845,28.698,65.95,95,100,2.53,light rain
250,Pandamatenga,BW,-18.5278,25.627,68.95,76,45,6.78,scattered clouds
251,Saskylakh,RU,71.9167,114.0833,-4.99,98,100,11.21,overcast clouds
252,Santa Maria Del Oro,MX,25.9333,-105.3667,63.18,27,1,3.89,clear sky
253,Nanortalik,GL,60.1432,-45.2371,24.37,79,100,6.02,overcast clouds
254,Nikolskoye,RU,59.7035,30.7861,30.09,93,95,8.19,overcast clouds
255,Katsuura,JP,35.1333,140.3,54.93,75,62,9.95,broken clouds
256,Shushtar,IR,32.0455,48.8567,59.76,47,0,1.48,clear sky
257,Petropavlovsk-Kamchatskiy,RU,53.0452,158.6483,14.59,73,75,11.18,broken clouds
258,Cheremshan,RU,54.6667,51.5,2.19,85,20,7.56,few clouds
259,Bereda,ES,43.2686,-7.5406,51.42,100,100,0.96,overcast clouds
260,Sabang,ID,5.8933,95.3214,78.26,82,100,13.44,moderate rain
261,Kolyshley,RU,52.7005,44.5367,16.97,78,100,15.7,overcast clouds
262,Eyl,SO,7.9803,49.8164,74.93,80,36,12.68,scattered clouds
263,Nchelenge,ZM,-9.3451,28.734,68.65,88,100,7.85,moderate rain
264,Arusha,TZ,-3.3667,36.6833,61.05,92,16,3.47,few clouds
265,Yichun,CN,47.7,128.9,5.81,88,68,1.25,broken clouds
266,Komsomolskiy,UZ,40.4272,71.7189,29.12,93,100,6.91,mist
267,Ahipara,NZ,-35.1667,173.1667,72.03,77,42,8.21,light rain
268,Faya,SA,18.3851,42.4509,54.01,74,6,1.41,clear sky
269,Ponta Do Sol,PT,32.6667,-17.1,67.71,84,76,18.03,light rain
270,Sernur,RU,56.9333,49.1536,11.68,92,100,13.73,overcast clouds
271,Charlestown,AU,-32.95,151.6667,67.86,64,100,5.01,overcast clouds
272,Hamilton,US,39.1834,-84.5333,45.93,91,100,4.0,overcast clouds
273,Asau,RO,46.4333,26.4,36.52,92,54,4.05,broken clouds
274,The Valley,AI,18.217,-63.0578,78.82,65,0,17.78,clear sky
275,Nyimba,ZM,-14.5566,30.8149,67.24,90,100,2.26,light rain
276,Plettenberg Bay,ZA,-34.0527,23.3716,68.22,84,0,4.92,clear sky
277,Georgetown,MY,5.4112,100.3354,78.73,93,40,8.05,moderate rain
278,Konya,TR,38.1667,32.5,29.68,78,8,2.42,clear sky
279,Cayenne,GF,4.9333,-52.3333,75.24,94,0,0.0,clear sky
280,Kargasok,RU,59.0556,80.8572,7.48,89,100,14.38,overcast clouds
281,Nurota,UZ,40.5614,65.6886,18.77,76,87,10.07,overcast clouds
282,Broken Hill,AU,-31.95,141.4333,67.73,29,84,6.96,broken clouds
283,Tucupita,VE,9.0622,-62.051,71.65,90,100,2.91,overcast clouds
284,Tayu,ID,-6.5397,111.0518,82.65,71,92,5.41,overcast clouds
285,Tura,IN,25.5198,90.2201,58.64,82,17,3.11,few clouds
286,Wuning,CN,29.2589,120.2311,51.96,92,100,1.88,overcast clouds
287,Kununurra,AU,-15.7667,128.7333,93.18,52,6,4.61,clear sky
288,San Policarpo,PH,12.1791,125.5072,78.42,88,100,3.0,light rain
289,Eureka,US,40.8021,-124.1637,44.92,94,100,1.01,overcast clouds
290,Broome,US,42.2506,-75.833,40.62,77,100,11.5,overcast clouds
291,Rio Gallegos,AR,-51.6226,-69.2181,51.17,81,100,9.31,overcast clouds
292,Gull Lake,CA,50.1001,-108.4847,21.52,78,83,11.3,broken clouds
293,Oksfjord,NO,70.2396,22.3479,30.38,89,86,7.76,light snow
294,Zabaykalsk,RU,49.6333,117.3167,4.21,92,100,15.73,overcast clouds
295,Yeppoon,AU,-23.1333,150.7333,87.58,64,9,12.21,clear sky
296,Aasiaat,GL,68.7098,-52.8699,29.57,96,100,8.93,light snow
297,Sembe,CG,1.6481,14.5806,69.19,95,100,1.63,overcast clouds
298,Kattivakkam,IN,13.2167,80.3167,69.89,82,100,21.61,moderate rain
299,Feuchtwangen,DE,49.1667,10.3333,30.33,87,19,2.89,few clouds
300,Inhambane,MZ,-23.865,35.3833,77.0,77,68,9.4,broken clouds
301,Thasra,IN,22.8,73.2167,58.95,40,1,9.84,clear sky
302,Waingapu,ID,-9.6567,120.2641,84.54,62,91,3.65,overcast clouds
303,Auki,SB,-8.7676,160.7034,82.72,78,86,2.57,overcast clouds
304,Seoul,KR,37.5683,126.9778,40.44,70,75,6.91,broken clouds
305,Hirado,JP,33.3597,129.5531,51.39,56,100,7.52,overcast clouds
306,Malinovoye Ozero,RU,51.6753,79.7825,-4.79,93,100,3.96,overcast clouds
307,Gidam,IN,18.9833,81.4,53.26,54,72,3.76,broken clouds
308,Black River,JM,18.0264,-77.8487,73.24,77,0,6.87,clear sky
309,Camacha,PT,33.0833,-16.3333,65.62,64,40,24.16,scattered clouds
310,Baherden,TM,38.4362,57.4316,30.54,55,13,8.7,few clouds
311,Maniitsoq,GL,65.4167,-52.9,35.71,79,100,34.29,overcast clouds
312,Sharjah,AE,25.3573,55.4033,76.91,63,2,9.98,clear sky
313,Mayo,US,38.8876,-76.5119,50.5,71,0,6.91,clear sky
314,Hovd,MN,48.0056,91.6419,-3.03,67,0,5.46,clear sky
315,New Amsterdam,GY,6.25,-57.5167,74.62,88,100,3.38,overcast clouds
316,Labuhan,ID,-6.8844,112.2051,81.79,74,85,8.41,light rain
317,Neiafu,TO,-18.65,-173.9833,78.6,85,100,21.85,overcast clouds
318,Dodoma,TZ,-6.1722,35.7395,65.64,74,93,4.0,overcast clouds
319,Tenamaxtlan,MX,20.2167,-104.1667,69.37,40,46,0.47,scattered clouds
320,Linguere,SN,15.3953,-15.1193,79.3,35,1,9.37,clear sky
321,Tomohon,ID,1.3346,124.8392,76.14,63,94,1.43,overcast clouds
322,Haines Junction,CA,60.7522,-137.5108,7.36,97,100,2.55,overcast clouds
323,Privolnyy,RU,44.0998,46.6587,40.82,65,96,17.69,overcast clouds
324,Lorengau,PG,-2.0226,147.2712,83.43,76,100,8.08,overcast clouds
325,Umm Kaddadah,SD,13.6017,26.6876,60.4,30,2,13.94,clear sky
326,Vila,PT,42.0304,-8.1588,43.68,93,94,3.2,overcast clouds
327,Ketchikan,US,55.3422,-131.6461,36.07,80,100,8.05,light rain
328,Kungurtug,RU,50.5994,97.5228,-22.0,97,22,1.54,few clouds
329,Cedar City,US,37.6775,-113.0619,31.17,74,0,4.61,clear sky
330,Codrington,AU,-38.2667,141.9667,58.75,55,100,11.81,overcast clouds
331,Imeni Poliny Osipenko,RU,52.4201,136.4853,-3.37,95,22,6.53,few clouds
332,Caravelas,BR,-17.7125,-39.2481,73.51,96,98,5.08,overcast clouds
333,Evensk,RU,61.95,159.2333,14.61,76,100,6.51,overcast clouds
334,Yulara,AU,-25.2406,130.9889,96.87,11,12,14.65,few clouds
335,Orange,US,33.7,-117.7675,60.42,72,0,5.75,clear sky
336,Krutikha,RU,53.9599,81.2093,-11.2,98,22,3.87,few clouds
337,Port Hardy,CA,50.6996,-127.4199,37.06,77,41,7.94,light rain
338,Baruun-Urt,MN,46.6806,113.2792,-3.37,89,11,7.43,few clouds
339,Arraial Do Cabo,BR,-22.9661,-42.0278,72.72,85,6,2.89,clear sky
340,Puerto Ayacucho,VE,5.6639,-67.6236,74.89,85,100,4.0,overcast clouds
341,Mangai,CD,-4.05,19.5333,67.48,95,100,1.79,overcast clouds
342,Sobolevo,RU,54.4299,31.8996,24.69,97,100,8.1,overcast clouds
343,Kholm,RU,59.2667,32.85,26.87,93,80,9.15,broken clouds
344,Praia,CV,14.9215,-23.5087,75.74,78,40,16.11,scattered clouds
345,Great Malvern,GB,52.1116,-2.3252,31.3,96,82,4.85,broken clouds
346,Pau Brasil,BR,-15.4642,-39.6511,70.61,99,93,2.86,overcast clouds
347,Panzhihua,CN,26.5851,101.7128,50.41,69,0,1.5,clear sky
348,Port Lincoln,AU,-34.7333,135.8667,65.98,57,2,19.08,clear sky
349,Geraldton,AU,-28.7667,114.6,70.21,52,100,13.8,overcast clouds
350,Alta Floresta,BR,-9.8756,-56.0861,70.66,93,6,1.79,clear sky
351,Padang,ID,-0.9492,100.3543,77.05,88,98,2.91,overcast clouds
352,Saint-Philippe,RE,-21.3585,55.7679,74.79,87,71,13.51,light rain
353,Sao Joao Do Piaui,BR,-8.3581,-42.2467,77.4,49,100,3.09,overcast clouds
354,Ryotsu,JP,38.0833,138.4333,45.21,71,97,0.38,overcast clouds
355,Wanning,CN,18.8003,110.3967,72.21,75,98,10.47,overcast clouds
356,Mutoko,ZW,-17.397,32.2268,64.22,83,100,6.53,overcast clouds
357,Shawnee,US,39.05,-95.7669,49.17,97,100,4.61,mist
358,Korla,CN,41.7597,86.1469,25.75,51,100,4.94,overcast clouds
359,Yatou,CN,37.15,122.3833,42.84,66,100,5.32,overcast clouds
360,Kangema,KE,-0.6833,36.9667,54.61,96,38,3.67,scattered clouds
361,Scarborough,GB,54.2797,-0.4044,34.16,90,16,3.0,few clouds
362,Hofn,IS,64.2539,-15.2082,31.44,60,19,22.66,few clouds
363,Yaqui,MX,27.3667,-110.1667,68.56,53,99,14.36,overcast clouds
364,Byron Bay,AU,-28.65,153.6167,74.95,66,98,9.95,overcast clouds
365,Gizo,SB,-8.103,156.8419,84.36,72,100,5.01,light rain
366,Krasnyye Tkachi,RU,57.4926,39.7563,21.02,94,100,11.54,overcast clouds
367,Caramay,PH,10.1815,119.236,82.69,64,100,3.74,overcast clouds
368,Hit,IQ,33.6416,42.8251,55.96,66,7,3.53,clear sky
369,Udachnyy,RU,66.4167,112.4,-18.33,97,100,4.52,overcast clouds
370,Sangar,RU,63.9242,127.4739,-23.4,97,100,2.35,overcast clouds
371,Jasper,US,37.2001,-94.3502,57.24,95,100,1.01,mist
372,Aitape,PG,-3.1374,142.3475,80.58,82,100,5.08,overcast clouds
373,Beysehir,TR,37.6773,31.7246,42.3,87,31,4.76,scattered clouds
374,Amuntai,ID,-2.4177,115.2494,83.3,71,100,1.32,overcast clouds
375,Muzhi,RU,65.3667,64.6667,-10.71,84,2,9.64,clear sky
376,Ambon,ID,-3.6954,128.1814,84.34,79,40,3.44,scattered clouds
377,Wagar,SD,16.1525,36.2032,71.33,81,0,12.62,clear sky
378,Markova,UA,48.6758,24.4138,33.13,77,83,3.65,broken clouds
379,Abu Dhabi,AE,24.4667,54.3667,75.96,71,0,2.3,clear sky
380,Rawson,AR,-43.3002,-65.1023,74.03,30,62,20.62,broken clouds
381,Nome,US,64.5011,-165.4064,17.67,80,100,4.61,light snow
382,Longyearbyen,SJ,78.2186,15.6401,21.04,79,75,9.22,light snow
383,Yerbogachen,RU,61.2767,108.0108,8.1,94,100,10.0,light snow
384,La Ronge,CA,55.1001,-105.2842,-0.81,89,98,10.85,overcast clouds
385,Hasaki,JP,35.7333,140.8333,49.21,70,100,12.28,overcast clouds
386,Kortkeros,RU,61.8106,51.5806,12.2,94,100,5.99,overcast clouds
387,Te Anau,NZ,-45.4167,167.7167,55.56,94,100,0.96,overcast clouds
388,Salalah,OM,17.0151,54.0924,75.29,46,0,9.22,clear sky
389,Rincon,US,32.296,-81.2354,69.85,89,20,0.0,few clouds
390,Jinji,CN,23.2281,110.8261,56.88,70,45,3.85,scattered clouds
391,Kourou,GF,5.1552,-52.6478,75.25,87,100,6.44,overcast clouds
392,Sibu,MY,2.3,111.8167,74.1,95,99,1.45,overcast clouds
393,Mao,ES,39.8885,4.2658,63.16,77,0,13.8,clear sky
394,Uray,RU,60.1247,64.7758,17.31,87,99,11.21,overcast clouds
395,Rognan,NO,67.0953,15.3878,28.89,71,100,5.1,overcast clouds
396,Flinders,AU,-34.5833,150.8552,67.05,50,74,9.82,broken clouds
397,Tezu,IN,27.9167,96.1667,60.73,52,1,3.56,clear sky
398,Kamenka,RU,51.3223,42.7678,20.98,93,100,16.84,snow
399,Santa Clarita,US,34.3917,-118.5426,55.65,65,0,1.99,clear sky
400,Las Guacamayas,MX,18.0167,-102.2167,77.07,85,5,4.47,clear sky
401,Clyde River,CA,70.4692,-68.5914,3.79,83,100,3.67,overcast clouds
402,Thinadhoo,MV,0.5333,72.9333,82.35,73,100,17.92,overcast clouds
403,Zig,US,40.127,-92.7663,42.39,91,100,9.22,mist
404,Boke,GN,10.9409,-14.2967,74.5,92,0,2.26,clear sky
405,Vostok,RU,46.4856,135.8833,9.7,89,89,3.91,overcast clouds
406,Salamiyah,SY,35.0113,37.0532,51.12,78,7,1.61,clear sky
407,Indramayu,ID,-6.3264,108.32,82.08,73,100,7.16,overcast clouds
408,Hobyo,SO,5.3505,48.5268,78.71,77,97,13.98,overcast clouds
409,Sistranda,NO,63.7256,8.834,22.96,64,94,21.3,overcast clouds
410,Qui Nhon,VN,13.7667,109.2333,76.84,81,100,17.45,overcast clouds
411,Gunjur,GM,13.2019,-16.7339,77.07,71,0,13.98,clear sky
412,Praya,CV,14.9215,-23.5087,75.74,78,40,16.11,scattered clouds
413,Awjilah,LY,29.1081,21.2869,59.65,70,0,6.2,clear sky
414,Balkhash,KZ,46.844,74.9804,0.03,95,42,5.88,scattered clouds
415,Lerwick,GB,60.1545,-1.1494,37.4,60,60,18.28,broken clouds
416,Half Moon Bay,US,37.4636,-122.4286,55.62,77,100,14.97,overcast clouds
417,San Cristobal,VE,7.7669,-72.225,68.18,92,100,2.46,overcast clouds
418,Guiratinga,BR,-16.3494,-53.7583,79.95,56,100,2.08,overcast clouds
419,Umm Lajj,SA,25.0213,37.2685,72.66,55,6,12.12,clear sky
420,Vite,IN,17.2833,74.55,57.56,36,100,9.01,overcast clouds
421,Taksimo,RU,56.3444,114.8794,-3.55,87,90,3.69,overcast clouds
422,Chipoka,MW,-13.9933,34.5157,74.59,79,28,8.48,light rain
423,Anahuac,MX,27.2333,-100.15,75.24,61,0,7.45,clear sky
424,Burnie,AU,-41.0667,145.9167,62.94,44,60,10.31,broken clouds
425,Contai,IN,21.7786,87.7536,60.01,62,89,7.23,overcast clouds
426,Lac Du Bonnet,CA,50.2536,-96.0612,3.02,97,45,3.78,scattered clouds
427,Sabla,NG,12.7525,4.7077,68.7,21,0,11.18,clear sky
428,Iquique,CL,-20.2208,-70.1431,65.62,72,85,3.6,overcast clouds
429,Hokitika,NZ,-42.7167,170.9667,58.03,91,100,8.05,light rain
430,Chandia,IN,23.65,80.7,49.6,53,44,3.58,scattered clouds
431,Rochegda,RU,62.8,43.25,16.34,92,100,7.16,overcast clouds
432,Jiwani,PK,25.05,61.7417,74.48,69,0,6.58,clear sky
433,Lunino,RU,53.5918,45.2271,18.91,73,100,13.35,overcast clouds
434,Tambura,SS,5.6,27.4667,74.68,46,100,3.49,overcast clouds
435,Atar,MR,20.5169,-13.0499,75.81,42,14,3.89,few clouds
436,Kifri,IQ,34.6959,44.9661,54.37,52,0,5.75,clear sky
437,Kailua,US,21.4022,-157.7394,82.38,68,55,7.0,broken clouds
438,Bozeman,US,45.6796,-111.0386,29.62,78,0,1.99,clear sky
439,Mukhen,RU,48.1,136.1,13.62,79,95,7.25,overcast clouds
440,Okha,RU,53.5739,142.9478,3.45,82,15,11.59,few clouds
441,Praia Da Vitoria,PT,38.7333,-27.0667,57.76,91,100,11.99,overcast clouds
442,Sinop,TR,41.7711,34.8709,44.4,69,88,9.91,overcast clouds
443,Rio Branco,BR,-9.9747,-67.81,79.41,89,40,2.3,scattered clouds
444,Garoua,CM,9.3,13.4,69.35,23,30,1.92,scattered clouds
445,Cururupu,BR,-1.8283,-44.8683,75.06,90,92,3.49,overcast clouds
446,Sitka,US,57.0531,-135.33,35.49,80,100,11.5,light snow
447,Zhigansk,RU,66.7697,123.3711,-18.35,97,100,5.23,overcast clouds
448,Saint-Ambroise,CA,48.5501,-71.3324,18.57,80,12,6.06,few clouds
449,Dingle,PH,10.9995,122.6711,75.94,93,100,3.56,moderate rain
450,La Orilla,MX,17.9833,-102.2333,77.45,84,5,5.64,clear sky
451,Caldas De Vizela,PT,41.3821,-8.3089,53.91,91,100,5.99,overcast clouds
452,Astoria,US,46.1879,-123.8313,42.15,94,75,4.61,broken clouds
453,Mansehra,PK,34.3333,73.2,46.99,66,99,5.06,overcast clouds
454,Fargo,US,46.8772,-96.7898,10.44,87,0,1.01,mist
455,Puri,IN,19.8,85.85,61.32,54,91,11.72,overcast clouds
456,Bocana De Paiwas,NI,12.7857,-85.1227,69.22,93,2,5.46,clear sky
457,Tigil,RU,57.8,158.6667,6.84,92,96,4.99,overcast clouds
458,Srednekolymsk,RU,67.45,153.6833,-40.63,98,100,4.59,overcast clouds
459,San Nicolas,PH,18.1725,120.5953,82.31,78,75,17.27,broken clouds
460,Calama,CL,-22.4667,-68.9333,63.09,20,40,16.11,scattered clouds
461,La Baule-Escoublac,FR,47.2922,-2.364,34.21,88,100,11.5,overcast clouds
462,Zhangjiakou,CN,40.81,114.8794,22.95,45,4,1.48,clear sky
463,Puro,PH,12.4841,123.3827,81.32,78,100,2.71,overcast clouds
464,Leshukonskoye,RU,64.8989,45.7622,5.9,96,100,5.12,overcast clouds
465,Kathmandu,NP,27.7167,85.3167,46.62,87,20,2.3,mist
466,Karnobat,BG,42.65,26.9833,49.84,96,59,4.72,broken clouds
467,Massakory,TD,12.996,15.7293,67.87,19,5,9.89,clear sky
468,Rockland,US,41.1668,-74.0496,45.7,74,100,7.05,overcast clouds
469,Ramon,PH,16.7842,121.535,73.56,95,100,0.45,overcast clouds
470,Huarmey,PE,-10.0681,-78.1522,66.7,84,91,8.97,overcast clouds
471,Waconia,US,44.8508,-93.7869,28.49,83,34,6.89,scattered clouds
472,Fasa,IR,28.9383,53.6482,48.63,64,0,3.56,clear sky
473,Tukrah,LY,32.5341,20.5791,64.04,83,1,10.85,clear sky
474,Moussoro,TD,13.6408,16.4901,66.56,18,7,10.65,clear sky
475,Ljubinje,BA,42.9508,18.0886,52.43,91,100,7.63,overcast clouds
476,Anlu,CN,31.1661,112.5831,45.43,69,0,4.72,clear sky
477,Vanimo,PG,-2.6741,141.3028,80.53,85,100,3.42,overcast clouds
478,Sao Jose Dos Pinhais,BR,-25.5347,-49.2064,75.36,84,0,2.3,clear sky
479,Bundaberg,AU,-24.85,152.35,84.22,70,0,5.99,clear sky
480,Iqaluit,CA,63.7506,-68.5145,-6.25,91,11,7.83,few clouds
481,Saldanha,ZA,-33.0117,17.9442,64.96,92,94,8.79,overcast clouds
482,College,US,64.8569,-147.8028,17.58,87,100,6.91,light snow
483,Vardo,NO,70.3705,31.1107,33.78,80,100,35.68,light snow
484,Selenduma,RU,50.9131,106.2406,1.02,93,93,5.3,overcast clouds
485,Portoferraio,IT,42.8115,10.3146,61.97,78,100,21.43,overcast clouds
486,Del Rio,US,29.3627,-100.8968,75.31,71,100,20.0,overcast clouds
487,Bonavista,CA,48.6499,-53.1147,37.4,88,8,11.48,clear sky
488,Madulao,PH,13.5622,122.3378,80.46,84,100,9.06,overcast clouds
489,Avera,US,33.194,-82.5271,64.54,75,99,5.08,overcast clouds
490,Sadiqabad,PK,28.3062,70.1307,62.13,31,0,7.54,clear sky
491,Ouegoa,NC,-20.35,164.4333,84.02,68,47,4.63,scattered clouds
492,Moryakovskiy Zaton,RU,56.6956,84.6467,-4.14,89,93,10.6,overcast clouds
493,Eyrarbakki,IS,63.863,-21.1481,25.21,69,10,13.49,clear sky
494,Oytal,KZ,42.9057,73.2697,18.1,97,100,4.27,light snow
495,Murray Bridge,AU,-35.1167,139.2667,70.34,35,97,8.72,overcast clouds
496,Kovdor,RU,67.5662,30.4758,21.79,93,100,8.25,light snow
497,Vaitape,PF,-16.5167,-151.75,80.94,73,92,11.79,overcast clouds
498,Tete,MZ,-16.1564,33.5867,74.86,90,100,4.92,overcast clouds
499,Cornwall,CA,45.0181,-74.7281,34.99,86,100,0.0,overcast clouds
500,Guerrero Negro,MX,27.9769,-114.0611,61.65,65,78,14.72,broken clouds
501,Abha,SA,18.2164,42.5053,53.85,50,0,0.0,clear sky
502,Sakakah,SA,29.9697,40.2064,55.24,71,100,7.0,overcast clouds
503,Paita,PE,-5.0892,-81.1144,67.01,80,69,15.68,broken clouds
504,Kangasala,FI,61.4638,24.076,16.07,98,93,4.03,overcast clouds
505,Salina Cruz,MX,16.1667,-95.2,80.58,60,0,21.63,clear sky
506,Ust-Nera,RU,64.5667,143.2,-30.32,99,100,2.17,overcast clouds
507,Marawi,PH,7.9986,124.2928,71.69,92,100,0.4,overcast clouds
508,Nadym,RU,65.5333,72.5167,-20.34,96,100,17.07,overcast clouds
509,Bafq,IR,31.6128,55.4107,45.03,61,13,5.61,few clouds
510,Khilok,RU,51.3674,110.4676,6.71,89,100,11.95,overcast clouds
511,Jizan,SA,17.3333,42.6667,77.72,78,30,4.59,scattered clouds
512,Rabak,SD,13.1809,32.74,75.81,39,2,12.91,clear sky
513,Itoman,JP,26.1247,127.6694,68.02,96,75,21.85,broken clouds
514,Husavik,IS,66.0449,-17.3389,30.36,85,100,20.98,light snow
515,Cap Malheureux,MU,-19.9842,57.6142,76.46,75,88,10.0,overcast clouds
516,Unguia,CO,8.0434,-77.0945,74.44,92,22,3.22,few clouds
517,Arden,DK,56.769,9.8618,27.55,98,62,2.77,broken clouds
518,Moerai,PF,-22.4333,-151.3333,78.26,81,40,10.94,scattered clouds
519,Dabat,ET,12.9842,37.765,50.68,67,7,3.49,clear sky
520,Khasan,RU,42.4308,130.6434,29.68,49,0,6.85,clear sky
521,Bolotnoye,RU,55.6717,84.3981,-5.49,92,47,10.8,scattered clouds
522,Tauramena,CO,5.0183,-72.7492,72.73,79,99,4.32,overcast clouds
523,Quang Ngai,VN,15.1167,108.8,74.93,85,100,5.68,overcast clouds
524,Jevargi,IN,17.0167,76.7667,56.97,51,77,7.52,broken clouds
525,Marrakesh,MA,31.6315,-8.0083,59.07,94,75,2.3,broken clouds
526,Dwarka,IN,22.2394,68.9678,71.47,43,0,10.8,clear sky
527,Kapoeta,SS,4.7717,33.5903,75.74,66,84,6.89,light rain
528,Abonnema,NG,4.7084,6.7931,77.02,84,53,3.8,broken clouds
529,Aripuana,BR,-9.1667,-60.6333,72.75,97,79,0.96,broken clouds
530,Bela Cruz,BR,-3.0506,-40.1678,78.1,78,98,9.71,overcast clouds
531,Luxor,EG,25.6989,32.6421,61.5,39,100,4.36,overcast clouds
532,Lyubim,RU,58.3625,40.6843,18.18,95,100,8.63,overcast clouds
533,Kieta,PG,-6.2167,155.6333,79.93,87,100,6.69,moderate rain
534,Bara,NG,10.3744,10.7288,66.06,25,23,9.08,few clouds
535,Jablah,SY,35.3614,35.9256,53.89,71,0,4.61,clear sky
536,Chipinge,ZW,-20.1883,32.6236,62.33,93,98,6.15,overcast clouds
537,Ploufragan,FR,48.4914,-2.7946,37.09,85,95,1.99,overcast clouds
538,Fontem,CM,5.4685,9.8818,66.72,78,15,2.44,few clouds
539,Uige,AO,-7.6087,15.0613,62.96,91,81,2.1,broken clouds
540,Marzuq,YE,14.4,46.4667,59.49,34,52,0.89,broken clouds
541,Pangnirtung,CA,66.1451,-65.7125,10.72,93,100,2.64,overcast clouds
542,Erenhot,CN,43.6475,111.9767,12.76,76,100,1.66,overcast clouds
543,Matagami,CA,49.7502,-77.6328,-3.12,99,49,3.96,scattered clouds
544,Monrovia,LR,6.3005,-10.7969,78.15,86,15,6.71,light rain
545,Kidero,RU,42.1932,45.9614,19.94,91,54,1.61,broken clouds
546,Paulo Afonso,BR,-9.4061,-38.2147,76.73,71,81,9.8,broken clouds
547,Shenzhen,CN,22.5455,114.0683,69.13,82,16,6.62,few clouds
548,Cece,HU,46.7706,18.6283,36.27,93,16,2.91,few clouds
549,Nichinan,JP,31.6,131.3667,59.41,68,0,7.65,clear sky
550,Safakulevo,RU,54.9901,62.5442,8.15,83,84,11.27,broken clouds
551,Khorramshahr,IR,30.4397,48.1664,57.16,58,0,11.5,clear sky
552,Santander,ES,43.4647,-3.8044,52.47,93,75,5.75,light rain
553,Thompson,CA,55.7435,-97.8558,-22.43,97,100,2.89,overcast clouds
554,Carballo,ES,43.213,-8.691,53.91,94,100,3.0,overcast clouds
555,San Andres,CO,12.5847,-81.7006,82.42,69,20,10.36,light rain
556,Pimentel,PE,-6.8367,-79.9342,65.37,82,12,11.99,few clouds
557,San Sebastian,ES,43.3128,-1.975,55.63,87,75,3.44,light rain
558,Zhezkazgan,KZ,47.8043,67.7144,-16.62,76,40,4.47,scattered clouds
559,Nakhon Thai,TH,17.1006,100.8374,75.65,78,34,2.55,scattered clouds
560,Akhisar,TR,38.9185,27.8401,51.35,74,80,3.22,broken clouds
561,Omsukchan,RU,62.5333,155.8,-7.85,96,100,3.18,overcast clouds
562,Bonnyville,CA,54.2668,-110.735,7.03,96,32,4.88,scattered clouds
563,Anadyr,RU,64.75,177.4833,-2.38,95,100,5.01,overcast clouds
564,Rio Grande,BR,-32.035,-52.0986,71.02,86,0,11.18,light rain
565,Olivenza,ES,38.6832,-7.103,52.32,92,100,10.87,overcast clouds
566,Taoudenni,ML,22.6783,-3.9836,76.87,16,100,5.17,overcast clouds
567,Talnakh,RU,69.4865,88.3972,-12.98,95,67,2.71,broken clouds
568,Sucre,BO,-19.0333,-65.2627,64.81,53,41,5.21,scattered clouds
569,Xining,CN,36.6167,101.7667,24.64,50,67,2.39,broken clouds
570,Kota Kinabalu,MY,5.9749,116.0724,82.38,83,20,2.3,few clouds
571,Baoning,CN,25.3378,110.026,52.83,73,100,2.82,overcast clouds
572,Mecca,SA,21.4267,39.8261,72.5,68,97,6.55,overcast clouds
573,San Antonio,US,29.4241,-98.4936,75.31,71,75,8.05,broken clouds
574,San Lorenzo,PY,-25.3333,-57.5333,79.74,78,0,4.61,light rain
575,Bam,IR,29.106,58.357,52.2,57,99,5.79,overcast clouds
576,Gumdag,TM,39.2061,54.5906,28.45,76,17,23.89,few clouds
577,Champerico,GT,14.3,-91.9167,79.32,75,0,5.59,clear sky
578,Santiago Del Estero,AR,-27.7951,-64.2615,88.23,43,96,6.04,overcast clouds
579,Baicheng,CN,45.6167,122.8167,13.28,63,0,8.9,clear sky
580,Najran,SA,17.4924,44.1277,57.31,37,4,0.87,clear sky
581,Richards Bay,ZA,-28.783,32.0377,72.68,94,100,3.51,light rain
582,Kushima,JP,31.4583,131.2333,60.17,67,0,5.99,clear sky
583,Arouca,TT,10.6333,-61.3333,76.8,84,99,4.27,overcast clouds
584,Ploemeur,FR,47.7333,-3.4333,37.81,93,100,8.05,mist
585,Bloemfontein,ZA,-29.1211,26.214,62.89,72,25,13.35,scattered clouds
586,Markivka,UA,49.5229,39.5705,29.62,90,100,17.63,overcast clouds
587,Nicoya,CR,10.1483,-85.452,72.54,87,4,3.2,clear sky
588,Nioro,GM,13.35,-15.75,77.85,36,0,5.39,clear sky
589,Manokwari,ID,-0.8667,134.0833,82.65,72,63,3.76,broken clouds
590,Ilhabela,BR,-23.7781,-45.3581,71.04,84,5,5.44,clear sky
591,Ranot,TH,7.7777,100.3213,74.5,91,100,6.93,moderate rain
592,Quatre Cocos,MU,-20.2078,57.7625,77.11,81,100,15.05,light rain
593,Mitchell,US,43.7094,-98.0298,30.74,89,100,3.44,snow
594,Pringsewu,ID,-5.3582,104.9744,77.11,86,100,2.01,overcast clouds
595,Da Nang,VN,16.0678,108.2208,73.38,94,75,2.3,broken clouds
596,Almaznyy,RU,48.0448,40.045,28.17,92,100,15.68,overcast clouds
597,Key West,US,24.5557,-81.7826,77.0,77,0,6.91,clear sky
598,Kutum,SD,14.2,24.6667,55.6,23,18,5.26,few clouds
599,Port-Gentil,GA,-0.7193,8.7815,79.77,78,82,8.97,broken clouds
600,San Jeronimo,PE,-11.9472,-75.2829,51.48,81,100,4.68,overcast clouds
601,Puerto Princesa,PH,9.7392,118.7353,80.58,69,75,6.91,broken clouds
602,Luoyang,CN,34.6836,112.4536,41.41,62,100,0.96,overcast clouds
603,Chumphon,TH,10.3333,98.8333,71.92,94,89,0.76,moderate rain
604,Batagay,RU,67.6333,134.6333,-32.08,99,91,2.93,overcast clouds
605,Port Macquarie,AU,-31.4333,152.9167,67.89,58,90,7.29,overcast clouds
606,Dumas,US,35.8656,-101.9732,49.53,31,0,8.05,clear sky
607,Portel,BR,-1.9356,-50.8211,75.38,82,84,2.15,broken clouds
608,Puntarenas,CR,9.9763,-84.8384,76.05,82,7,1.83,clear sky
609,Minab,IR,27.1467,57.0801,69.67,42,1,7.92,clear sky
610,Muscat,OM,23.6139,58.5922,68.02,59,0,8.12,clear sky
611,Elat,IL,29.5581,34.9482,57.04,77,5,2.3,clear sky
612,Christchurch,NZ,-43.5333,172.6333,68.47,72,100,16.11,light rain
613,Guia Lopes Da Laguna,BR,-21.4578,-56.1142,80.08,73,98,7.02,overcast clouds
614,Stykkisholmur,IS,65.0757,-22.7297,30.9,71,71,25.81,broken clouds
615,Minna,NG,9.6139,6.5569,74.12,20,2,9.24,clear sky
616,Acarau,BR,-2.8856,-40.12,79.38,78,100,15.88,overcast clouds
617,Vikhorevka,RU,56.1201,101.1636,8.19,86,100,13.06,overcast clouds
618,Kalachinsk,RU,55.0529,74.5751,-2.88,93,95,8.88,overcast clouds
619,Botucatu,BR,-22.8858,-48.445,69.91,70,0,1.28,clear sky
620,Marsaxlokk,MT,35.8419,14.5431,65.08,88,20,10.36,few clouds
621,Divo,CI,5.8397,-5.36,71.92,96,9,1.66,light rain
622,Oranjemund,NA,-28.55,16.4333,61.57,96,31,0.78,scattered clouds
623,Trairi,BR,-3.2778,-39.2689,78.93,79,91,9.93,overcast clouds
624,Charters Towers,AU,-20.1,146.2667,95.38,25,5,6.6,clear sky
625,Honiara,SB,-9.4333,159.95,85.03,73,88,3.56,overcast clouds
626,Lovozero,RU,68.005,35.0117,23.47,92,100,15.39,light snow
627,Gawler,AU,-34.6,138.7333,71.1,43,100,10.31,overcast clouds
628,Lampa,CL,-33.2833,-70.9,75.33,46,0,12.66,clear sky
629,Valparaiso,CL,-33.0393,-71.6273,69.44,73,0,5.75,clear sky
630,Acajutla,SV,13.5928,-89.8275,78.13,73,33,3.62,scattered clouds
631,Zaysan,KZ,47.4667,84.8667,3.15,87,100,0.36,overcast clouds
632,Pochutla,MX,15.7432,-96.4661,79.83,83,0,3.31,light rain
633,Grand Gaube,MU,-20.0064,57.6608,77.4,75,94,10.0,light rain
634,Cape Canaveral,US,28.4058,-80.6048,73.99,78,0,5.75,clear sky
635,Leninskoye,KZ,41.7589,69.3864,17.58,81,100,4.79,light snow
636,Bluefield,US,37.2698,-81.2223,50.79,95,100,9.22,overcast clouds
637,Estreito,BR,-5.7833,-43.25,81.39,42,100,2.33,overcast clouds
638,Nenjiang,CN,49.1833,125.2167,-2.09,92,63,3.47,broken clouds
639,Dongsheng,CN,39.8161,109.9776,21.54,48,9,7.38,clear sky
640,Awbari,LY,26.5921,12.7805,67.62,25,5,6.49,clear sky
641,Jian,CN,27.1172,114.9793,53.26,76,95,6.26,overcast clouds
642,Mount Hagen,PG,-5.8581,144.2274,72.52,65,92,3.24,overcast clouds
643,Ambovombe,MG,-25.1667,46.0833,71.28,83,1,10.58,clear sky
644,Orthez,FR,43.4884,-0.7724,46.76,96,100,2.48,light rain
645,Livingston,GB,55.9029,-3.5226,34.81,83,0,9.22,clear sky
646,Pathein,MM,16.7833,94.7333,75.51,82,9,3.8,clear sky
647,Deputatskiy,RU,69.3,139.9,-31.31,97,100,2.91,overcast clouds
648,Berlin,DE,52.5244,13.4105,32.36,95,97,3.44,fog
649,Oranzherei,RU,45.8476,47.5663,30.52,73,60,17.27,broken clouds
650,Vila Franca Do Campo,PT,37.7167,-25.4333,59.2,84,99,5.23,overcast clouds
651,Novyye Burasy,RU,52.1324,46.0714,11.16,80,100,10.63,overcast clouds
652,Saquena,PE,-4.6667,-73.5167,74.73,91,100,1.68,overcast clouds
653,Cabra,ES,37.4725,-4.4421,54.39,92,61,7.18,broken clouds
654,Hare Bay,CA,48.8499,-54.0148,36.75,93,21,3.65,few clouds
655,Shimoda,JP,34.6667,138.95,52.11,64,11,5.88,few clouds
656,Zhanjiang,CN,21.2815,110.3427,62.62,67,100,8.08,overcast clouds
657,Ballina,AU,-28.8667,153.5667,74.01,71,98,9.04,overcast clouds
658,Muisne,EC,0.6,-80.0333,73.8,81,100,8.01,overcast clouds
659,Teshie,GH,5.5836,-0.1072,80.55,76,26,5.79,scattered clouds
660,Hatillo,PR,18.4863,-66.8254,78.12,79,0,3.0,clear sky
661,Neuquen,AR,-38.9516,-68.0591,80.49,41,0,18.41,clear sky
662,Taybad,IR,34.74,60.7756,30.92,74,40,8.99,scattered clouds
663,Linxi,CN,39.7,118.4333,33.15,37,0,2.66,clear sky
664,Keffi,NG,8.8486,7.8736,71.49,23,13,4.21,few clouds
665,Salinopolis,BR,-0.6136,-47.3561,78.73,82,85,8.32,overcast clouds
666,Karakol,KG,42.4907,78.3936,21.36,86,100,3.89,overcast clouds
667,Shingu,JP,33.7333,135.9833,55.26,47,8,0.69,clear sky
668,Santa Cruz De Tenerife,ES,28.4682,-16.2546,72.28,84,0,8.05,clear sky
669,Garmsar,IR,35.2182,52.3409,44.37,54,15,4.52,few clouds
670,Grand Forks,US,47.9417,-97.4337,11.93,85,100,3.44,overcast clouds
671,Vestmanna,FO,62.1564,-7.1664,36.52,81,75,21.85,light rain
672,Cayeli,TR,41.0923,40.7292,55.36,56,38,5.86,scattered clouds
673,Yeniseysk,RU,58.4497,92.1703,6.35,87,100,9.82,overcast clouds
674,Chiang Klang,TH,19.2938,100.8617,72.64,82,92,0.38,overcast clouds
675,Annau,TM,37.8876,58.516,30.76,50,57,5.37,broken clouds
676,Salamanca,ES,40.8333,-6.0,46.99,94,100,9.17,overcast clouds
677,Gualeguay,AR,-33.1416,-59.3097,82.53,41,0,6.85,clear sky
678,Muhos,FI,64.808,25.9931,22.89,93,100,7.07,light snow
679,Newport,GB,51.5877,-2.9984,30.54,70,8,7.36,clear sky
680,Pionerskiy,RU,54.9508,20.2275,33.75,83,96,11.07,overcast clouds
681,Sur,OM,22.5667,59.5289,73.78,62,0,7.09,clear sky
682,Berdavan,AM,41.205,44.9997,27.84,91,50,1.74,scattered clouds
683,Maldonado,UY,-34.6667,-54.9167,73.22,55,0,3.42,clear sky
684,Xai-Xai,MZ,-25.0519,33.6442,74.79,88,70,6.78,broken clouds
685,Maxixe,MZ,-23.8597,35.3472,76.14,78,61,8.3,broken clouds
686,Sungaipenuh,ID,-2.0833,101.3833,65.07,94,100,1.21,overcast clouds
687,Azul,AR,-36.777,-59.8585,75.25,23,0,4.21,clear sky
688,Arlit,NE,18.7369,7.3853,68.83,16,0,6.02,clear sky
689,Puerto Madryn,AR,-42.7692,-65.0385,77.67,24,75,20.07,broken clouds
690,Ust-Kan,RU,50.9276,84.761,-8.73,86,92,3.67,overcast clouds
691,Mutsu,JP,41.2894,141.2169,37.53,60,55,12.77,broken clouds
692,Visnes,NO,59.3556,5.2242,35.22,86,100,19.57,snow
693,Dunedin,NZ,-45.8742,170.5036,62.8,83,100,1.99,light rain
694,Puttur,IN,12.7667,75.2167,71.71,54,100,1.81,overcast clouds
695,Pangoa,PE,-12.1167,-73.0,72.19,83,85,1.61,overcast clouds
696,Kahului,US,20.8947,-156.47,80.62,66,20,23.02,few clouds
697,Manadhoo,MV,5.7667,73.3833,81.66,76,100,13.4,overcast clouds
698,Ganzhou,CN,28.8184,115.4327,52.0,71,29,2.64,scattered clouds
699,Saint-Augustin,CA,51.226,-58.6502,35.44,92,100,11.1,overcast clouds
700,Mortka,RU,59.3322,66.0214,15.19,85,97,9.78,overcast clouds
701,Zhangye,CN,38.9342,100.4517,21.69,67,37,2.08,scattered clouds
702,Primero De Enero,CU,21.9469,-78.4283,70.14,74,0,8.03,clear sky
703,Mae Sai,TH,20.4335,99.8762,68.09,88,60,1.12,broken clouds
704,Phonhong,LA,18.5007,102.4166,71.78,81,56,0.43,broken clouds
705,Alice Springs,AU,-23.7,133.8833,80.15,13,67,16.11,broken clouds
706,Kloulklubed,PW,7.0419,134.2556,82.9,75,100,9.82,overcast clouds
707,Vientiane,LA,17.9667,102.6,77.04,80,8,1.12,clear sky
708,Young,UY,-32.6833,-57.6333,82.6,35,0,5.26,clear sky
709,Chama,CH,47.1821,8.4636,35.35,90,100,0.0,snow
710,Semnan,IR,35.5729,53.3971,37.62,62,55,3.69,broken clouds
711,Vetluga,RU,57.8557,45.781,17.87,92,100,9.13,overcast clouds
